Camera Id,Seq Timestamp,Capture Timestamp,Lat,Long,Elevation,Roll,Pitch,Heading,SeqFile,FrameName
1,1612838642381,1630550633288,-34.79575908,138.63414913,14.059,-2.953,2.843,218.906,HR_20210209__F01_C01_0001.seq,HR_20210209__F01_C01_0001_0001.tif
1,1612838642881,1630550633788,-34.79575933,138.63415225,14.037,-2.907,2.457,218.936,HR_20210209__F01_C01_0001.seq,HR_20210209__F01_C01_0001_0002.tif
1,1612838643381,1630550634288,-34.79575949,138.63415474,14.011,-2.706,2.774,220.339,HR_20210209__F01_C01_0001.seq,HR_20210209__F01_C01_0001_0003.tif
1,1612838643902,1630550634788,-34.79575951,138.63415678,14.006,-2.835,2.799,219.485,HR_20210209__F01_C01_0001.seq,HR_20210209__F01_C01_0001_0004.tif
1,1612838644381,1630550635288,-34.79575959,138.6341581,13.978,-2.79,2.613,219.916,HR_20210209__F01_C01_0001.seq,HR_20210209__F01_C01_0001_0005.tif
1,1612838644939,1630550635788,-34.79575926,138.63415882,13.963,-2.915,2.634,219.142,HR_20210209__F01_C01_0001.seq,HR_20210209__F01_C01_0001_0006.tif
1,1612838645381,1630550636288,-34.79575876,138.63415947,13.937,-2.83,2.603,219.362,HR_20210209__F01_C01_0001.seq,HR_20210209__F01_C01_0001_0007.tif
1,1612838645963,1630550636788,-34.79575844,138.63416008,13.92,-2.86,2.687,219.691,HR_20210209__F01_C01_0001.seq,HR_20210209__F01_C01_0001_0008.tif
1,1612838646381,1630550637288,-34.79575815,138.63416071,13.909,-2.863,2.667,219.325,HR_20210209__F01_C01_0001.seq,HR_20210209__F01_C01_0001_0009.tif
1,1612838646958,1630550637788,-34.79575791,138.63416125,13.883,-2.861,2.689,220.169,HR_20210209__F01_C01_0001.seq,HR_20210209__F01_C01_0001_0010.tif
1,1612838647381,1630550638288,-34.79575788,138.63416161,13.873,-2.823,2.715,220.06,HR_20210209__F01_C01_0001.seq,HR_20210209__F01_C01_0001_0011.tif
1,1612838647886,1630550638788,-34.79575766,138.63416209,13.853,-2.87,2.78,220.487,HR_20210209__F01_C01_0001.seq,HR_20210209__F01_C01_0001_0012.tif
1,1612838648381,1630550639288,-34.79575722,138.63416287,13.839,-2.821,2.737,220.484,HR_20210209__F01_C01_0001.seq,HR_20210209__F01_C01_0001_0013.tif
1,1612838648909,1630550639788,-34.79575737,138.63416288,13.835,-2.878,2.769,220.688,HR_20210209__F01_C01_0001.seq,HR_20210209__F01_C01_0001_0014.tif
1,1612838649381,1630550640288,-34.79575776,138.63416254,13.844,-2.792,2.802,220.913,HR_20210209__F01_C01_0001.seq,HR_20210209__F01_C01_0001_0015.tif
1,1612838649960,1630550640788,-34.79575843,138.63416188,13.852,-2.836,2.836,221.354,HR_20210209__F01_C01_0001.seq,HR_20210209__F01_C01_0001_0016.tif
1,1612838650381,1630550641288,-34.79575836,138.63416206,13.855,-2.82,2.842,221.095,HR_20210209__F01_C01_0001.seq,HR_20210209__F01_C01_0001_0017.tif
1,1612838650973,1630550641788,-34.7957587,138.63416177,13.854,-2.866,2.861,221.562,HR_20210209__F01_C01_0001.seq,HR_20210209__F01_C01_0001_0018.tif
1,1612838651381,1630550642288,-34.79575813,138.63416244,13.855,-2.809,2.921,221.524,HR_20210209__F01_C01_0001.seq,HR_20210209__F01_C01_0001_0019.tif
1,1612838651987,1630550642788,-34.7957583,138.63416233,13.854,-2.868,2.941,221.824,HR_20210209__F01_C01_0001.seq,HR_20210209__F01_C01_0001_0020.tif
1,1612838652381,1630550643288,-34.79575784,138.63416293,13.853,-2.838,2.941,221.686,HR_20210209__F01_C01_0001.seq,HR_20210209__F01_C01_0001_0021.tif
1,1612840214682,1630552205589,-34.62981135,138.45986164,242.973,5.061,-1.13,148.262,HR_20210209__F01_C01_0002.seq,HR_20210209__F01_C01_0002_0001.tif
1,1612840215311,1630552206089,-34.62994236,138.45993535,243.272,4.47,-1.219,146.957,HR_20210209__F01_C01_0002.seq,HR_20210209__F01_C01_0002_0002.tif
1,1612840215682,1630552206589,-34.63007237,138.4600096,243.507,5.704,-1.405,146.128,HR_20210209__F01_C01_0002.seq,HR_20210209__F01_C01_0002_0003.tif
1,1612840216344,1630552207089,-34.63020129,138.46008421,243.67,5.973,-1.918,145.6,HR_20210209__F01_C01_0002.seq,HR_20210209__F01_C01_0002_0004.tif
1,1612840216682,1630552207589,-34.6303301,138.46015897,243.68,5.13,-2.69,145.55,HR_20210209__F01_C01_0002.seq,HR_20210209__F01_C01_0002_0005.tif
1,1612840217182,1630552208089,-34.630459,138.46023427,243.602,5.288,-2.817,145.891,HR_20210209__F01_C01_0002.seq,HR_20210209__F01_C01_0002_0006.tif
1,1612840217682,1630552208589,-34.630587,138.46031002,243.611,5.936,-2.633,145.929,HR_20210209__F01_C01_0002.seq,HR_20210209__F01_C01_0002_0007.tif
1,1612840218182,1630552209089,-34.63071474,138.46038583,243.687,5.546,-2.412,145.959,HR_20210209__F01_C01_0002.seq,HR_20210209__F01_C01_0002_0008.tif
1,1612840218682,1630552209589,-34.6308419,138.46046195,243.831,4.986,-2.29,145.705,HR_20210209__F01_C01_0002.seq,HR_20210209__F01_C01_0002_0009.tif
1,1612840219182,1630552210089,-34.63096825,138.46053841,243.924,3.624,-2.291,145.683,HR_20210209__F01_C01_0002.seq,HR_20210209__F01_C01_0002_0010.tif
1,1612840219682,1630552210589,-34.63109389,138.46061559,244.052,4.285,-1.619,145.116,HR_20210209__F01_C01_0002.seq,HR_20210209__F01_C01_0002_0011.tif
1,1612840220182,1630552211089,-34.63121911,138.46069307,244.196,4.462,-1.751,144.275,HR_20210209__F01_C01_0002.seq,HR_20210209__F01_C01_0002_0012.tif
1,1612840220682,1630552211589,-34.63134311,138.46077099,244.208,4.329,-1.752,143.499,HR_20210209__F01_C01_0002.seq,HR_20210209__F01_C01_0002_0013.tif
1,1612840221182,1630552212089,-34.63146683,138.46084998,244.132,4.592,-1.538,143.371,HR_20210209__F01_C01_0002.seq,HR_20210209__F01_C01_0002_0014.tif
1,1612840221682,1630552212589,-34.63158989,138.46092967,244.038,4.745,-1.404,143.499,HR_20210209__F01_C01_0002.seq,HR_20210209__F01_C01_0002_0015.tif
1,1612840222182,1630552213089,-34.63171224,138.46101002,244.044,7.183,-1.263,144.587,HR_20210209__F01_C01_0002.seq,HR_20210209__F01_C01_0002_0016.tif
1,1612840222682,1630552213589,-34.63183475,138.46108976,244.05,9.462,-1.127,145.493,HR_20210209__F01_C01_0002.seq,HR_20210209__F01_C01_0002_0017.tif
1,1612840223188,1630552214089,-34.63195847,138.46116817,244.054,10.431,-1.254,146.855,HR_20210209__F01_C01_0002.seq,HR_20210209__F01_C01_0002_0018.tif
1,1612840223682,1630552214589,-34.63208262,138.46124494,244.114,10.194,-1.327,146.94,HR_20210209__F01_C01_0002.seq,HR_20210209__F01_C01_0002_0019.tif
1,1612840224200,1630552215089,-34.63220797,138.4613201,244.448,10.21,-1.42,148.671,HR_20210209__F01_C01_0002.seq,HR_20210209__F01_C01_0002_0020.tif
1,1612840224682,1630552215589,-34.63233395,138.46139322,244.899,11.469,-1.148,148.682,HR_20210209__F01_C01_0002.seq,HR_20210209__F01_C01_0002_0021.tif
1,1612840225202,1630552216089,-34.63246023,138.46146422,245.043,9.845,-0.629,149.501,HR_20210209__F01_C01_0002.seq,HR_20210209__F01_C01_0002_0022.tif
1,1612840225682,1630552216589,-34.63258654,138.46153324,245.181,9.294,-0.576,150.356,HR_20210209__F01_C01_0002.seq,HR_20210209__F01_C01_0002_0023.tif
1,1612840226203,1630552217089,-34.63271409,138.46160035,245.249,9.328,-1.065,150.56,HR_20210209__F01_C01_0002.seq,HR_20210209__F01_C01_0002_0024.tif
1,1612840226682,1630552217589,-34.63284091,138.46166537,245.139,8.408,-1.389,150.084,HR_20210209__F01_C01_0002.seq,HR_20210209__F01_C01_0002_0025.tif
1,1612840227217,1630552218089,-34.63296868,138.46172944,244.988,7.446,-2.051,149.758,HR_20210209__F01_C01_0002.seq,HR_20210209__F01_C01_0002_0026.tif
1,1612840227682,1630552218589,-34.63309644,138.46179319,244.68,5.612,-1.954,149.765,HR_20210209__F01_C01_0002.seq,HR_20210209__F01_C01_0002_0027.tif
1,1612840228233,1630552219089,-34.63322423,138.46185739,244.443,5.148,-1.718,149.91,HR_20210209__F01_C01_0002.seq,HR_20210209__F01_C01_0002_0028.tif
1,1612840228682,1630552219589,-34.63335138,138.46192208,244.286,5.191,-1.411,149.601,HR_20210209__F01_C01_0002.seq,HR_20210209__F01_C01_0002_0029.tif
1,1612840229231,1630552220089,-34.63347839,138.46198714,244.061,4.028,-1.212,149.204,HR_20210209__F01_C01_0002.seq,HR_20210209__F01_C01_0002_0030.tif
1,1612840229682,1630552220589,-34.63360446,138.4620526,243.856,3.808,-0.949,148.219,HR_20210209__F01_C01_0002.seq,HR_20210209__F01_C01_0002_0031.tif
1,1612840230249,1630552221089,-34.63372958,138.46211859,243.768,3.778,-0.956,146.335,HR_20210209__F01_C01_0002.seq,HR_20210209__F01_C01_0002_0032.tif
1,1612840230682,1630552221589,-34.63385381,138.46218578,243.676,3.294,-0.648,144.59,HR_20210209__F01_C01_0002.seq,HR_20210209__F01_C01_0002_0033.tif
1,1612840231264,1630552222089,-34.63397699,138.46225464,243.619,4.217,-0.459,143.651,HR_20210209__F01_C01_0002.seq,HR_20210209__F01_C01_0002_0034.tif
1,1612840231682,1630552222589,-34.63409918,138.46232462,243.534,6.12,-0.229,143.424,HR_20210209__F01_C01_0002.seq,HR_20210209__F01_C01_0002_0035.tif
1,1612840232281,1630552223089,-34.63422084,138.46239491,243.281,5.832,0.081,143.459,HR_20210209__F01_C01_0002.seq,HR_20210209__F01_C01_0002_0036.tif
1,1612840232682,1630552223589,-34.63434179,138.46246549,243.009,6.044,0.301,143.156,HR_20210209__F01_C01_0002.seq,HR_20210209__F01_C01_0002_0037.tif
1,1612840233279,1630552224089,-34.63446224,138.46253675,242.949,8.005,-0.028,145.106,HR_20210209__F01_C01_0002.seq,HR_20210209__F01_C01_0002_0038.tif
1,1612840233682,1630552224589,-34.6345827,138.46260792,242.968,10.323,-0.139,146.013,HR_20210209__F01_C01_0002.seq,HR_20210209__F01_C01_0002_0039.tif
1,1612840234297,1630552225089,-34.63470367,138.46267805,242.905,9.601,-0.883,146.661,HR_20210209__F01_C01_0002.seq,HR_20210209__F01_C01_0002_0040.tif
1,1612840234682,1630552225589,-34.63482531,138.46274699,242.84,10.317,-0.809,147.35,HR_20210209__F01_C01_0002.seq,HR_20210209__F01_C01_0002_0041.tif
1,1612840235295,1630552226089,-34.63494764,138.46281424,242.737,10.024,-0.861,148.146,HR_20210209__F01_C01_0002.seq,HR_20210209__F01_C01_0002_0042.tif
1,1612840235682,1630552226589,-34.63507047,138.46287968,242.48,8.964,-0.58,148.14,HR_20210209__F01_C01_0002.seq,HR_20210209__F01_C01_0002_0043.tif
1,1612840236312,1630552227089,-34.63519366,138.46294391,242.117,6.256,-0.48,148.504,HR_20210209__F01_C01_0002.seq,HR_20210209__F01_C01_0002_0044.tif
1,1612840236682,1630552227589,-34.63531656,138.46300796,241.746,3.982,-1.314,149.059,HR_20210209__F01_C01_0002.seq,HR_20210209__F01_C01_0002_0045.tif
1,1612840237275,1630552228089,-34.63543876,138.46307317,241.544,5.272,-1.508,149.357,HR_20210209__F01_C01_0002.seq,HR_20210209__F01_C01_0002_0046.tif
1,1612840237682,1630552228589,-34.63556021,138.46313821,241.344,5.737,-0.714,148.25,HR_20210209__F01_C01_0002.seq,HR_20210209__F01_C01_0002_0047.tif
1,1612840238182,1630552229089,-34.63568186,138.46320432,241.567,6.257,-0.92,147.532,HR_20210209__F01_C01_0002.seq,HR_20210209__F01_C01_0002_0048.tif
1,1612840238682,1630552229589,-34.63580356,138.46327138,242.169,5.815,-0.873,147.224,HR_20210209__F01_C01_0002.seq,HR_20210209__F01_C01_0002_0049.tif
1,1612840239182,1630552230089,-34.63592498,138.46333906,242.781,4.27,-0.727,146.177,HR_20210209__F01_C01_0002.seq,HR_20210209__F01_C01_0002_0050.tif
1,1612840239682,1630552230589,-34.6360454,138.46340812,243.43,6.55,-0.582,146.322,HR_20210209__F01_C01_0002.seq,HR_20210209__F01_C01_0002_0051.tif
1,1612840240182,1630552231089,-34.63616574,138.46347832,243.9,5.567,-1.6,146.527,HR_20210209__F01_C01_0002.seq,HR_20210209__F01_C01_0002_0052.tif
1,1612840240682,1630552231589,-34.63628556,138.46354919,244.287,5.721,-2.098,147.675,HR_20210209__F01_C01_0002.seq,HR_20210209__F01_C01_0002_0053.tif
1,1612840241182,1630552232089,-34.63640538,138.46362101,244.741,7.024,-1.916,148.755,HR_20210209__F01_C01_0002.seq,HR_20210209__F01_C01_0002_0054.tif
1,1612840241682,1630552232589,-34.63652543,138.46369289,245.346,7.873,-2.037,148.539,HR_20210209__F01_C01_0002.seq,HR_20210209__F01_C01_0002_0055.tif
1,1612840242182,1630552233089,-34.63664595,138.46376486,246.001,7.119,-1.515,148.951,HR_20210209__F01_C01_0002.seq,HR_20210209__F01_C01_0002_0056.tif
1,1612840242682,1630552233589,-34.63676645,138.46383664,246.749,6.655,-0.837,148.757,HR_20210209__F01_C01_0002.seq,HR_20210209__F01_C01_0002_0057.tif
1,1612840243182,1630552234089,-34.63688708,138.46390876,247.796,8.875,-0.781,150.153,HR_20210209__F01_C01_0002.seq,HR_20210209__F01_C01_0002_0058.tif
1,1612840243682,1630552234589,-34.63700771,138.4639793,248.805,10.464,-0.643,150.902,HR_20210209__F01_C01_0002.seq,HR_20210209__F01_C01_0002_0059.tif
1,1612840244182,1630552235089,-34.63712879,138.46404731,249.602,8.186,-0.228,150.594,HR_20210209__F01_C01_0002.seq,HR_20210209__F01_C01_0002_0060.tif
1,1612840244682,1630552235589,-34.63725005,138.46411344,250.372,6.085,0.016,149.906,HR_20210209__F01_C01_0002.seq,HR_20210209__F01_C01_0002_0061.tif
1,1612840245182,1630552236089,-34.63737055,138.46417855,251.215,4.679,-0.264,148.816,HR_20210209__F01_C01_0002.seq,HR_20210209__F01_C01_0002_0062.tif
1,1612840245682,1630552236589,-34.63749023,138.46424391,252.312,6.838,-0.699,147.967,HR_20210209__F01_C01_0002.seq,HR_20210209__F01_C01_0002_0063.tif
1,1612840246182,1630552237089,-34.63760987,138.46430937,253.188,8.96,-0.533,147.702,HR_20210209__F01_C01_0002.seq,HR_20210209__F01_C01_0002_0064.tif
1,1612840246682,1630552237589,-34.63772971,138.46437424,253.65,7.372,-0.632,149.038,HR_20210209__F01_C01_0002.seq,HR_20210209__F01_C01_0002_0065.tif
1,1612840247182,1630552238089,-34.6378496,138.46443885,254.068,6.647,-2.188,149.547,HR_20210209__F01_C01_0002.seq,HR_20210209__F01_C01_0002_0066.tif
1,1612840247682,1630552238589,-34.63796978,138.46450374,254.156,6.562,-2.134,148.726,HR_20210209__F01_C01_0002.seq,HR_20210209__F01_C01_0002_0067.tif
1,1612840248182,1630552239089,-34.63809008,138.46456882,254.074,6.294,-2.195,149.095,HR_20210209__F01_C01_0002.seq,HR_20210209__F01_C01_0002_0068.tif
1,1612840248682,1630552239589,-34.63821093,138.46463427,253.955,5.714,-2.907,149.772,HR_20210209__F01_C01_0002.seq,HR_20210209__F01_C01_0002_0069.tif
1,1612840249182,1630552240089,-34.63833234,138.46470004,253.791,5.684,-2.868,149.073,HR_20210209__F01_C01_0002.seq,HR_20210209__F01_C01_0002_0070.tif
1,1612840249682,1630552240589,-34.63845421,138.4647664,253.673,5.804,-3.111,148.055,HR_20210209__F01_C01_0002.seq,HR_20210209__F01_C01_0002_0071.tif
1,1612840250182,1630552241089,-34.63857673,138.46483405,253.622,5.719,-3.54,147.566,HR_20210209__F01_C01_0002.seq,HR_20210209__F01_C01_0002_0072.tif
1,1612840250682,1630552241589,-34.63870024,138.46490343,253.514,6.191,-3.11,148.046,HR_20210209__F01_C01_0002.seq,HR_20210209__F01_C01_0002_0073.tif
1,1612840251182,1630552242089,-34.63882399,138.46497352,253.501,8.116,-2.602,148.537,HR_20210209__F01_C01_0002.seq,HR_20210209__F01_C01_0002_0074.tif
1,1612840251682,1630552242589,-34.63894866,138.46504385,253.581,8.793,-2.533,149.328,HR_20210209__F01_C01_0002.seq,HR_20210209__F01_C01_0002_0075.tif
1,1612840252182,1630552243089,-34.63907339,138.46511313,253.527,7.321,-2.362,149.481,HR_20210209__F01_C01_0002.seq,HR_20210209__F01_C01_0002_0076.tif
1,1612840252682,1630552243589,-34.63919863,138.46518209,253.6,7.397,-2.284,149.116,HR_20210209__F01_C01_0002.seq,HR_20210209__F01_C01_0002_0077.tif
1,1612840253182,1630552244089,-34.63932352,138.46524987,253.922,7.283,-2.012,149.036,HR_20210209__F01_C01_0002.seq,HR_20210209__F01_C01_0002_0078.tif
1,1612840253682,1630552244589,-34.6394488,138.46531698,254.326,4.491,-1.539,147.695,HR_20210209__F01_C01_0002.seq,HR_20210209__F01_C01_0002_0079.tif
1,1612840254182,1630552245089,-34.63957312,138.46538425,254.678,3.085,-1.713,146.313,HR_20210209__F01_C01_0002.seq,HR_20210209__F01_C01_0002_0080.tif
1,1612840254682,1630552245589,-34.63969682,138.46545349,254.82,5.663,-1.3,145.975,HR_20210209__F01_C01_0002.seq,HR_20210209__F01_C01_0002_0081.tif
1,1612840255182,1630552246089,-34.63981998,138.46552345,254.77,6.867,-0.887,146.297,HR_20210209__F01_C01_0002.seq,HR_20210209__F01_C01_0002_0082.tif
1,1612840255682,1630552246589,-34.63994294,138.46559313,254.66,6.164,-1.139,147.515,HR_20210209__F01_C01_0002.seq,HR_20210209__F01_C01_0002_0083.tif
1,1612840256182,1630552247089,-34.64006515,138.46566233,254.513,6.738,-0.896,147.273,HR_20210209__F01_C01_0002.seq,HR_20210209__F01_C01_0002_0084.tif
1,1612840256682,1630552247589,-34.64018741,138.46573147,254.382,8.21,-0.642,145.845,HR_20210209__F01_C01_0002.seq,HR_20210209__F01_C01_0002_0085.tif
1,1612840257182,1630552248089,-34.64030964,138.46580004,254.156,8.352,-1.297,145.852,HR_20210209__F01_C01_0002.seq,HR_20210209__F01_C01_0002_0086.tif
1,1612840257682,1630552248589,-34.64043223,138.46586819,253.8,8.139,-1.524,146.263,HR_20210209__F01_C01_0002.seq,HR_20210209__F01_C01_0002_0087.tif
1,1612840258182,1630552249089,-34.64055505,138.4659356,253.381,7.426,-1.246,146.596,HR_20210209__F01_C01_0002.seq,HR_20210209__F01_C01_0002_0088.tif
1,1612840258682,1630552249589,-34.6406776,138.46600232,253.144,5.261,-1.339,145.532,HR_20210209__F01_C01_0002.seq,HR_20210209__F01_C01_0002_0089.tif
1,1612840259182,1630552250089,-34.64079961,138.46606966,253.124,5.139,-1.609,145.532,HR_20210209__F01_C01_0002.seq,HR_20210209__F01_C01_0002_0090.tif
1,1612840259682,1630552250589,-34.64092103,138.46613763,252.939,5.151,-2.203,145.304,HR_20210209__F01_C01_0002.seq,HR_20210209__F01_C01_0002_0091.tif
1,1612840260182,1630552251089,-34.64104254,138.46620666,252.555,5.35,-2.971,145.225,HR_20210209__F01_C01_0002.seq,HR_20210209__F01_C01_0002_0092.tif
1,1612840260682,1630552251589,-34.64116419,138.46627714,252.105,6.136,-3.894,146.791,HR_20210209__F01_C01_0002.seq,HR_20210209__F01_C01_0002_0093.tif
1,1612840261182,1630552252089,-34.64128724,138.46634912,251.701,6.984,-3.734,147.494,HR_20210209__F01_C01_0002.seq,HR_20210209__F01_C01_0002_0094.tif
1,1612840261682,1630552252589,-34.641411,138.46642224,251.637,7.317,-3.928,148.268,HR_20210209__F01_C01_0002.seq,HR_20210209__F01_C01_0002_0095.tif
1,1612840262182,1630552253089,-34.64153618,138.46649603,252.092,8.782,-3.527,149.012,HR_20210209__F01_C01_0002.seq,HR_20210209__F01_C01_0002_0096.tif
1,1612840262682,1630552253589,-34.64166208,138.46656923,252.821,8.513,-2.834,147.998,HR_20210209__F01_C01_0002.seq,HR_20210209__F01_C01_0002_0097.tif
1,1612840263182,1630552254089,-34.64178909,138.46664213,253.676,7.555,-2.056,147.648,HR_20210209__F01_C01_0002.seq,HR_20210209__F01_C01_0002_0098.tif
1,1612840263682,1630552254589,-34.64191566,138.46671437,254.505,6.396,-2.122,146.452,HR_20210209__F01_C01_0002.seq,HR_20210209__F01_C01_0002_0099.tif
1,1612840264182,1630552255089,-34.64204241,138.46678661,255.389,7.778,-1.528,146.187,HR_20210209__F01_C01_0002.seq,HR_20210209__F01_C01_0002_0100.tif
1,1612840264682,1630552255589,-34.64216823,138.46685845,256.215,7.261,-2.341,145.276,HR_20210209__F01_C01_0002.seq,HR_20210209__F01_C01_0002_0101.tif
1,1612840265183,1630552256089,-34.64229418,138.46693066,256.843,9.483,-2.479,145.808,HR_20210209__F01_C01_0002.seq,HR_20210209__F01_C01_0002_0102.tif
1,1612840265682,1630552256589,-34.64242042,138.46700213,257.254,10.392,-2.06,146.257,HR_20210209__F01_C01_0002.seq,HR_20210209__F01_C01_0002_0103.tif
1,1612840266182,1630552257089,-34.64254777,138.46707276,257.754,10.366,-2.71,146.356,HR_20210209__F01_C01_0002.seq,HR_20210209__F01_C01_0002_0104.tif
1,1612840266682,1630552257589,-34.64267573,138.46714242,258.271,10.126,-2.965,146.426,HR_20210209__F01_C01_0002.seq,HR_20210209__F01_C01_0002_0105.tif
1,1612840267182,1630552258089,-34.64280505,138.46721125,258.698,9.941,-2.58,147.262,HR_20210209__F01_C01_0002.seq,HR_20210209__F01_C01_0002_0106.tif
1,1612840267682,1630552258589,-34.64293469,138.46727892,259.092,7.821,-2.691,147.169,HR_20210209__F01_C01_0002.seq,HR_20210209__F01_C01_0002_0107.tif
1,1612840268182,1630552259089,-34.64306415,138.46734554,259.232,5.01,-2.457,146.549,HR_20210209__F01_C01_0002.seq,HR_20210209__F01_C01_0002_0108.tif
1,1612840268682,1630552259589,-34.64319294,138.46741198,259.183,3.655,-2.258,144.936,HR_20210209__F01_C01_0002.seq,HR_20210209__F01_C01_0002_0109.tif
1,1612840269182,1630552260089,-34.64332119,138.4674797,259.061,6.288,-1.376,143.906,HR_20210209__F01_C01_0002.seq,HR_20210209__F01_C01_0002_0110.tif
1,1612840269682,1630552260589,-34.64344882,138.46754766,258.698,5.591,-1.273,143.504,HR_20210209__F01_C01_0002.seq,HR_20210209__F01_C01_0002_0111.tif
1,1612840270183,1630552261089,-34.64357642,138.46761634,258.365,4.83,-1.821,142.587,HR_20210209__F01_C01_0002.seq,HR_20210209__F01_C01_0002_0112.tif
1,1612840270682,1630552261589,-34.64370317,138.46768649,258.049,6.667,-2.002,143.103,HR_20210209__F01_C01_0002.seq,HR_20210209__F01_C01_0002_0113.tif
1,1612840271182,1630552262089,-34.64382963,138.46775726,257.681,7.275,-1.987,143.501,HR_20210209__F01_C01_0002.seq,HR_20210209__F01_C01_0002_0114.tif
1,1612840271682,1630552262589,-34.64395656,138.46782837,257.475,8.169,-1.973,145.09,HR_20210209__F01_C01_0002.seq,HR_20210209__F01_C01_0002_0115.tif
1,1612840272182,1630552263089,-34.64408376,138.46789919,257.329,7.212,-1.841,144.922,HR_20210209__F01_C01_0002.seq,HR_20210209__F01_C01_0002_0116.tif
1,1612840272699,1630552263589,-34.6442112,138.46797001,257.277,6.582,-2.028,144.573,HR_20210209__F01_C01_0002.seq,HR_20210209__F01_C01_0002_0117.tif
1,1612840273182,1630552264089,-34.64433876,138.46804075,257.293,6.412,-1.98,144.774,HR_20210209__F01_C01_0002.seq,HR_20210209__F01_C01_0002_0118.tif
1,1612840273719,1630552264589,-34.64446593,138.46811153,257.281,5.631,-1.766,144.64,HR_20210209__F01_C01_0002.seq,HR_20210209__F01_C01_0002_0119.tif
1,1612840274182,1630552265089,-34.64459265,138.46818284,257.305,5.256,-1.593,144.611,HR_20210209__F01_C01_0002.seq,HR_20210209__F01_C01_0002_0120.tif
1,1612840274726,1630552265589,-34.6447192,138.46825471,257.333,5.049,-1.61,144.959,HR_20210209__F01_C01_0002.seq,HR_20210209__F01_C01_0002_0121.tif
1,1612840275182,1630552266089,-34.64484525,138.468327,257.322,4.536,-1.585,144.865,HR_20210209__F01_C01_0002.seq,HR_20210209__F01_C01_0002_0122.tif
1,1612840275731,1630552266589,-34.64497065,138.4684001,257.417,6.338,-1.418,145.564,HR_20210209__F01_C01_0002.seq,HR_20210209__F01_C01_0002_0123.tif
1,1612840276182,1630552267089,-34.64509597,138.46847315,257.326,7.088,-1.441,145.792,HR_20210209__F01_C01_0002.seq,HR_20210209__F01_C01_0002_0124.tif
1,1612840276718,1630552267589,-34.64522093,138.46854584,256.988,6.419,-1.384,146.189,HR_20210209__F01_C01_0002.seq,HR_20210209__F01_C01_0002_0125.tif
1,1612840277182,1630552268089,-34.64534529,138.46861933,256.679,7.351,-1.212,147.188,HR_20210209__F01_C01_0002.seq,HR_20210209__F01_C01_0002_0126.tif
1,1612840277763,1630552268589,-34.64547011,138.46869154,256.341,7.48,-1.192,146.723,HR_20210209__F01_C01_0002.seq,HR_20210209__F01_C01_0002_0127.tif
1,1612840278182,1630552269089,-34.64559441,138.46876337,255.891,6.814,-1.316,146.219,HR_20210209__F01_C01_0002.seq,HR_20210209__F01_C01_0002_0128.tif
1,1612840278763,1630552269589,-34.64571885,138.46883484,255.516,7.076,-1.443,146.112,HR_20210209__F01_C01_0002.seq,HR_20210209__F01_C01_0002_0129.tif
1,1612840279182,1630552270089,-34.64584311,138.46890646,255.157,7.225,-1.3,146.017,HR_20210209__F01_C01_0002.seq,HR_20210209__F01_C01_0002_0130.tif
1,1612840279775,1630552270589,-34.64596747,138.4689778,254.788,6.381,-1.224,146.023,HR_20210209__F01_C01_0002.seq,HR_20210209__F01_C01_0002_0131.tif
1,1612840280182,1630552271089,-34.64609162,138.46904972,254.527,6.406,-1.575,146.384,HR_20210209__F01_C01_0002.seq,HR_20210209__F01_C01_0002_0132.tif
1,1612840280781,1630552271589,-34.6462159,138.46912134,254.266,6.657,-1.42,146.724,HR_20210209__F01_C01_0002.seq,HR_20210209__F01_C01_0002_0133.tif
1,1612840281182,1630552272089,-34.64633985,138.46919279,254.045,7.271,-1.251,146.838,HR_20210209__F01_C01_0002.seq,HR_20210209__F01_C01_0002_0134.tif
1,1612840281791,1630552272590,-34.64646366,138.4692634,253.851,6.023,-1.269,146.39,HR_20210209__F01_C01_0002.seq,HR_20210209__F01_C01_0002_0135.tif
1,1612840282183,1630552273090,-34.64658706,138.46933379,253.617,2.883,-1.225,144.956,HR_20210209__F01_C01_0002.seq,HR_20210209__F01_C01_0002_0136.tif
1,1612840282803,1630552273590,-34.64670973,138.46940601,253.768,3.054,-1.742,143.829,HR_20210209__F01_C01_0002.seq,HR_20210209__F01_C01_0002_0137.tif
1,1612840283182,1630552274090,-34.64683188,138.4694808,254.132,6.337,-1.814,143.533,HR_20210209__F01_C01_0002.seq,HR_20210209__F01_C01_0002_0138.tif
1,1612840283811,1630552274590,-34.6469541,138.46955584,254.422,8.377,-1.597,144.294,HR_20210209__F01_C01_0002.seq,HR_20210209__F01_C01_0002_0139.tif
1,1612840284183,1630552275090,-34.64707694,138.46963022,254.69,8.711,-1.52,143.974,HR_20210209__F01_C01_0002.seq,HR_20210209__F01_C01_0002_0140.tif
1,1612840284682,1630552275590,-34.6472003,138.4697038,255.01,8.905,-1.645,143.156,HR_20210209__F01_C01_0002.seq,HR_20210209__F01_C01_0002_0141.tif
1,1612840285182,1630552276090,-34.64732391,138.4697763,255.233,7.947,-1.243,143.025,HR_20210209__F01_C01_0002.seq,HR_20210209__F01_C01_0002_0142.tif
1,1612840285682,1630552276590,-34.64744766,138.46984888,255.7,8.876,-1.388,143.205,HR_20210209__F01_C01_0002.seq,HR_20210209__F01_C01_0002_0143.tif
1,1612840286182,1630552277090,-34.64757161,138.46992035,256.292,10.362,-1.214,144.002,HR_20210209__F01_C01_0002.seq,HR_20210209__F01_C01_0002_0144.tif
1,1612840286683,1630552277590,-34.64769542,138.46998976,256.562,9.076,-0.548,143.885,HR_20210209__F01_C01_0002.seq,HR_20210209__F01_C01_0002_0145.tif
1,1612840287182,1630552278090,-34.64781909,138.47005718,256.661,7.553,-0.401,143.52,HR_20210209__F01_C01_0002.seq,HR_20210209__F01_C01_0002_0146.tif
1,1612840287682,1630552278590,-34.64794245,138.47012449,256.759,7.615,-0.725,143.559,HR_20210209__F01_C01_0002.seq,HR_20210209__F01_C01_0002_0147.tif
1,1612840288182,1630552279090,-34.64806551,138.47019072,256.727,7.865,-0.938,144.062,HR_20210209__F01_C01_0002.seq,HR_20210209__F01_C01_0002_0148.tif
1,1612840288682,1630552279590,-34.64818826,138.47025703,256.435,7.433,-0.8,144.617,HR_20210209__F01_C01_0002.seq,HR_20210209__F01_C01_0002_0149.tif
1,1612840289182,1630552280090,-34.64831064,138.47032234,255.937,6.618,-1.015,144.404,HR_20210209__F01_C01_0002.seq,HR_20210209__F01_C01_0002_0150.tif
1,1612840289682,1630552280590,-34.64843268,138.47038761,255.351,6.673,-1.334,143.981,HR_20210209__F01_C01_0002.seq,HR_20210209__F01_C01_0002_0151.tif
1,1612840290182,1630552281090,-34.6485548,138.4704526,254.727,7.664,-1.99,143.635,HR_20210209__F01_C01_0002.seq,HR_20210209__F01_C01_0002_0152.tif
1,1612840290682,1630552281590,-34.64867734,138.47051819,253.852,7.067,-2.501,143.869,HR_20210209__F01_C01_0002.seq,HR_20210209__F01_C01_0002_0153.tif
1,1612840291183,1630552282090,-34.64880016,138.4705831,252.814,6.652,-2.755,143.857,HR_20210209__F01_C01_0002.seq,HR_20210209__F01_C01_0002_0154.tif
1,1612840291682,1630552282590,-34.64892345,138.47064927,251.796,6.217,-2.971,143.807,HR_20210209__F01_C01_0002.seq,HR_20210209__F01_C01_0002_0155.tif
1,1612840292182,1630552283090,-34.64904728,138.47071651,250.954,6.894,-2.997,143.849,HR_20210209__F01_C01_0002.seq,HR_20210209__F01_C01_0002_0156.tif
1,1612840292682,1630552283590,-34.64917127,138.47078407,249.97,4.967,-3.176,143.071,HR_20210209__F01_C01_0002.seq,HR_20210209__F01_C01_0002_0157.tif
1,1612840293182,1630552284090,-34.64929542,138.4708529,249.117,6.206,-3.598,142.844,HR_20210209__F01_C01_0002.seq,HR_20210209__F01_C01_0002_0158.tif
1,1612840293682,1630552284590,-34.64941962,138.47092291,248.125,8.732,-2.419,142.776,HR_20210209__F01_C01_0002.seq,HR_20210209__F01_C01_0002_0159.tif
1,1612840294182,1630552285090,-34.64954435,138.47099233,247.051,9.113,-2.732,142.852,HR_20210209__F01_C01_0002.seq,HR_20210209__F01_C01_0002_0160.tif
1,1612840294682,1630552285590,-34.64966965,138.47106079,246.341,9.257,-3.845,143.839,HR_20210209__F01_C01_0002.seq,HR_20210209__F01_C01_0002_0161.tif
1,1612840295182,1630552286090,-34.64979423,138.47113861,245.369,9.428,-4.327,144.638,HR_20210209__F01_C01_0002.seq,HR_20210209__F01_C01_0002_0162.tif
1,1612840295682,1630552286590,-34.64992111,138.47120576,244.244,9.072,-3.828,144.342,HR_20210209__F01_C01_0002.seq,HR_20210209__F01_C01_0002_0163.tif
1,1612840296182,1630552287090,-34.65004919,138.47127404,243.123,9.707,-3.451,144.859,HR_20210209__F01_C01_0002.seq,HR_20210209__F01_C01_0002_0164.tif
1,1612840296682,1630552287590,-34.65017826,138.47134152,241.793,7.131,-3.22,145.016,HR_20210209__F01_C01_0002.seq,HR_20210209__F01_C01_0002_0165.tif
1,1612840297182,1630552288090,-34.65030787,138.4714097,240.576,3.949,-4.063,145.016,HR_20210209__F01_C01_0002.seq,HR_20210209__F01_C01_0002_0166.tif
1,1612840297682,1630552288590,-34.65043782,138.47147948,239.635,4.271,-4.519,144.98,HR_20210209__F01_C01_0002.seq,HR_20210209__F01_C01_0002_0167.tif
1,1612840298182,1630552289090,-34.6505677,138.47155147,238.806,6.908,-4.043,144.651,HR_20210209__F01_C01_0002.seq,HR_20210209__F01_C01_0002_0168.tif
1,1612840298682,1630552289590,-34.65069824,138.47162355,237.891,7.234,-3.726,144.703,HR_20210209__F01_C01_0002.seq,HR_20210209__F01_C01_0002_0169.tif
1,1612840299182,1630552290090,-34.65082922,138.47169609,236.97,7.541,-3.804,144.481,HR_20210209__F01_C01_0002.seq,HR_20210209__F01_C01_0002_0170.tif
1,1612840299682,1630552290590,-34.65096121,138.47176877,235.986,7.528,-3.937,144.356,HR_20210209__F01_C01_0002.seq,HR_20210209__F01_C01_0002_0171.tif
1,1612840300182,1630552291090,-34.65109376,138.4718415,234.941,6.976,-3.848,144.807,HR_20210209__F01_C01_0002.seq,HR_20210209__F01_C01_0002_0172.tif
1,1612840300682,1630552291590,-34.65122693,138.47191426,233.916,7.235,-3.624,144.864,HR_20210209__F01_C01_0002.seq,HR_20210209__F01_C01_0002_0173.tif
1,1612840301182,1630552292090,-34.65136032,138.4719864,232.854,6.498,-3.47,144.626,HR_20210209__F01_C01_0002.seq,HR_20210209__F01_C01_0002_0174.tif
1,1612840301683,1630552292590,-34.65149419,138.47205932,231.877,6.372,-3.468,144.236,HR_20210209__F01_C01_0002.seq,HR_20210209__F01_C01_0002_0175.tif
1,1612840302182,1630552293090,-34.65162841,138.47213197,230.904,7.398,-2.991,143.987,HR_20210209__F01_C01_0002.seq,HR_20210209__F01_C01_0002_0176.tif
1,1612840302683,1630552293590,-34.65176299,138.47220507,229.803,7.245,-2.566,143.786,HR_20210209__F01_C01_0002.seq,HR_20210209__F01_C01_0002_0177.tif
1,1612840303182,1630552294090,-34.65189844,138.47227817,228.858,6.837,-2.757,143.868,HR_20210209__F01_C01_0002.seq,HR_20210209__F01_C01_0002_0178.tif
1,1612840303683,1630552294590,-34.65203399,138.47235175,228.086,7.008,-3.173,143.954,HR_20210209__F01_C01_0002.seq,HR_20210209__F01_C01_0002_0179.tif
1,1612840304182,1630552295090,-34.65217025,138.47242577,227.239,7.223,-2.862,143.879,HR_20210209__F01_C01_0002.seq,HR_20210209__F01_C01_0002_0180.tif
1,1612840304683,1630552295590,-34.65230636,138.47249927,226.419,7.411,-2.743,143.507,HR_20210209__F01_C01_0002.seq,HR_20210209__F01_C01_0002_0181.tif
1,1612840305182,1630552296090,-34.65244364,138.47257495,225.677,8.384,-2.702,143.191,HR_20210209__F01_C01_0002.seq,HR_20210209__F01_C01_0002_0182.tif
1,1612840305683,1630552296590,-34.65258071,138.47264789,225.013,8.612,-2.852,142.749,HR_20210209__F01_C01_0002.seq,HR_20210209__F01_C01_0002_0183.tif
1,1612840306182,1630552297090,-34.6527198,138.47272483,224.92,13.421,-2.966,142.786,HR_20210209__F01_C01_0002.seq,HR_20210209__F01_C01_0002_0184.tif
1,1612840306683,1630552297590,-34.65285978,138.47279574,225.211,19.117,-2.246,142.779,HR_20210209__F01_C01_0002.seq,HR_20210209__F01_C01_0002_0185.tif
1,1612840307182,1630552298090,-34.65300328,138.47286724,225.679,23.17,-2.14,142.591,HR_20210209__F01_C01_0002.seq,HR_20210209__F01_C01_0002_0186.tif
1,1612840307683,1630552298590,-34.65314897,138.47292955,225.919,25.566,-1.765,143.908,HR_20210209__F01_C01_0002.seq,HR_20210209__F01_C01_0002_0187.tif
1,1612840308182,1630552299090,-34.65330014,138.472991,226.308,28.525,-1.855,146.962,HR_20210209__F01_C01_0002.seq,HR_20210209__F01_C01_0002_0188.tif
1,1612840308683,1630552299590,-34.65345363,138.47303883,226.682,28.245,-0.198,150.774,HR_20210209__F01_C01_0002.seq,HR_20210209__F01_C01_0002_0189.tif
1,1612840309182,1630552300090,-34.65361225,138.47308265,227.154,26.78,0.497,154.433,HR_20210209__F01_C01_0002.seq,HR_20210209__F01_C01_0002_0190.tif
1,1612840309683,1630552300590,-34.6537715,138.47311271,227.813,26.821,0.473,159.146,HR_20210209__F01_C01_0002.seq,HR_20210209__F01_C01_0002_0191.tif
1,1612840310182,1630552301090,-34.65393496,138.4731366,228.745,26.945,0.715,164.065,HR_20210209__F01_C01_0002.seq,HR_20210209__F01_C01_0002_0192.tif
1,1612840310683,1630552301590,-34.65409712,138.4731477,229.732,25.57,0.66,168.465,HR_20210209__F01_C01_0002.seq,HR_20210209__F01_C01_0002_0193.tif
1,1612840311182,1630552302090,-34.654262,138.47315258,230.779,26.438,0.011,172.162,HR_20210209__F01_C01_0002.seq,HR_20210209__F01_C01_0002_0194.tif
1,1612840381763,1630552372671,-34.64653386,138.47035275,253.781,10.136,-1.091,339.375,HR_20210209__F01_C01_0003.seq,HR_20210209__F01_C01_0003_0001.tif
1,1612840382263,1630552373171,-34.64638782,138.47026464,253.908,11.053,-1.437,339.274,HR_20210209__F01_C01_0003.seq,HR_20210209__F01_C01_0003_0002.tif
1,1612840382763,1630552373671,-34.64624136,138.47017709,254.102,12.221,-1.889,339.604,HR_20210209__F01_C01_0003.seq,HR_20210209__F01_C01_0003_0003.tif
1,1612840383263,1630552374171,-34.64609402,138.47009118,253.959,8.503,-3.179,340.371,HR_20210209__F01_C01_0003.seq,HR_20210209__F01_C01_0003_0004.tif
1,1612840383763,1630552374671,-34.6459471,138.47000634,253.759,6.44,-3.8,339.833,HR_20210209__F01_C01_0003.seq,HR_20210209__F01_C01_0003_0005.tif
1,1612840384263,1630552375171,-34.64579969,138.46992107,253.545,6.163,-3.713,339.624,HR_20210209__F01_C01_0003.seq,HR_20210209__F01_C01_0003_0006.tif
1,1612840384764,1630552375671,-34.64565265,138.46983498,253.176,4.969,-3.787,339.605,HR_20210209__F01_C01_0003.seq,HR_20210209__F01_C01_0003_0007.tif
1,1612840385263,1630552376171,-34.64550514,138.4697476,252.877,4.973,-4.343,339.419,HR_20210209__F01_C01_0003.seq,HR_20210209__F01_C01_0003_0008.tif
1,1612840385763,1630552376671,-34.64535777,138.46965851,252.806,7.366,-4.149,339.506,HR_20210209__F01_C01_0003.seq,HR_20210209__F01_C01_0003_0009.tif
1,1612840386263,1630552377171,-34.64520987,138.46956947,252.666,7.507,-4.215,339.307,HR_20210209__F01_C01_0003.seq,HR_20210209__F01_C01_0003_0010.tif
1,1612840386763,1630552377671,-34.64506174,138.46948046,252.385,6.209,-4.281,339.203,HR_20210209__F01_C01_0003.seq,HR_20210209__F01_C01_0003_0011.tif
1,1612840387263,1630552378171,-34.644913,138.4693909,252.194,6.309,-3.916,339.483,HR_20210209__F01_C01_0003.seq,HR_20210209__F01_C01_0003_0012.tif
1,1612840387763,1630552378671,-34.64476374,138.46930028,252.155,7.535,-4.017,339.714,HR_20210209__F01_C01_0003.seq,HR_20210209__F01_C01_0003_0013.tif
1,1612840388263,1630552379171,-34.64461432,138.46921011,252.275,9.198,-3.291,340.212,HR_20210209__F01_C01_0003.seq,HR_20210209__F01_C01_0003_0014.tif
1,1612840388763,1630552379671,-34.64446479,138.46912109,252.643,10.068,-2.951,340.364,HR_20210209__F01_C01_0003.seq,HR_20210209__F01_C01_0003_0015.tif
1,1612840389264,1630552380171,-34.64431508,138.46903376,253.109,9.88,-3.086,340.336,HR_20210209__F01_C01_0003.seq,HR_20210209__F01_C01_0003_0016.tif
1,1612840389764,1630552380671,-34.64416519,138.46894816,253.573,7.528,-3.211,340.282,HR_20210209__F01_C01_0003.seq,HR_20210209__F01_C01_0003_0017.tif
1,1612840390264,1630552381171,-34.64401516,138.46886289,254.1,7.215,-3.411,340.469,HR_20210209__F01_C01_0003.seq,HR_20210209__F01_C01_0003_0018.tif
1,1612840390763,1630552381671,-34.64386573,138.46877867,254.513,7.663,-2.838,340.589,HR_20210209__F01_C01_0003.seq,HR_20210209__F01_C01_0003_0019.tif
1,1612840391280,1630552382171,-34.64371648,138.46869498,254.56,6.082,-2.979,339.898,HR_20210209__F01_C01_0003.seq,HR_20210209__F01_C01_0003_0020.tif
1,1612840391764,1630552382671,-34.64356817,138.46861203,254.679,5.445,-3.273,339.393,HR_20210209__F01_C01_0003.seq,HR_20210209__F01_C01_0003_0021.tif
1,1612840392285,1630552383171,-34.64341794,138.46852633,254.818,5.1,-3.318,339.696,HR_20210209__F01_C01_0003.seq,HR_20210209__F01_C01_0003_0022.tif
1,1612840392763,1630552383671,-34.64326985,138.46844183,254.944,5.374,-3.234,340.083,HR_20210209__F01_C01_0003.seq,HR_20210209__F01_C01_0003_0023.tif
1,1612840393295,1630552384171,-34.64311876,138.46835397,255.162,5.397,-3.386,339.942,HR_20210209__F01_C01_0003.seq,HR_20210209__F01_C01_0003_0024.tif
1,1612840393763,1630552384671,-34.64297108,138.46826853,255.528,4.471,-3.099,339.859,HR_20210209__F01_C01_0003.seq,HR_20210209__F01_C01_0003_0025.tif
1,1612840394295,1630552385171,-34.64281912,138.46817784,256.106,5.491,-3.698,339.89,HR_20210209__F01_C01_0003.seq,HR_20210209__F01_C01_0003_0026.tif
1,1612840394763,1630552385671,-34.64267106,138.46808974,256.584,6.546,-3.774,340.481,HR_20210209__F01_C01_0003.seq,HR_20210209__F01_C01_0003_0027.tif
1,1612840395325,1630552386171,-34.64251746,138.4679968,256.97,6.343,-3.733,341.043,HR_20210209__F01_C01_0003.seq,HR_20210209__F01_C01_0003_0028.tif
1,1612840395764,1630552386671,-34.64236883,138.46790842,257.219,4.91,-4.102,341.254,HR_20210209__F01_C01_0003.seq,HR_20210209__F01_C01_0003_0029.tif
1,1612840396342,1630552387171,-34.6422142,138.46781442,257.484,7.305,-3.83,340.927,HR_20210209__F01_C01_0003.seq,HR_20210209__F01_C01_0003_0030.tif
1,1612840396764,1630552387671,-34.64206487,138.46772547,257.609,7.643,-3.478,340.828,HR_20210209__F01_C01_0003.seq,HR_20210209__F01_C01_0003_0031.tif
1,1612840397358,1630552388171,-34.64190986,138.46763237,257.755,6.74,-3.388,340.956,HR_20210209__F01_C01_0003.seq,HR_20210209__F01_C01_0003_0032.tif
1,1612840397763,1630552388671,-34.64175915,138.46754355,258.122,7.407,-3.907,341.215,HR_20210209__F01_C01_0003.seq,HR_20210209__F01_C01_0003_0033.tif
1,1612840398375,1630552389171,-34.64160347,138.46745144,258.386,6.118,-3.985,340.938,HR_20210209__F01_C01_0003.seq,HR_20210209__F01_C01_0003_0034.tif
1,1612840398763,1630552389671,-34.64145214,138.4673639,258.78,7.665,-4.034,339.938,HR_20210209__F01_C01_0003.seq,HR_20210209__F01_C01_0003_0035.tif
1,1612840399378,1630552390171,-34.64129576,138.46727316,258.839,6.373,-3.582,339.021,HR_20210209__F01_C01_0003.seq,HR_20210209__F01_C01_0003_0036.tif
1,1612840399763,1630552390671,-34.64114384,138.46718652,258.772,3.127,-4.015,338.053,HR_20210209__F01_C01_0003.seq,HR_20210209__F01_C01_0003_0037.tif
1,1612840400394,1630552391171,-34.6409887,138.46709496,259.369,4.382,-4.795,337.281,HR_20210209__F01_C01_0003.seq,HR_20210209__F01_C01_0003_0038.tif
1,1612840400764,1630552391671,-34.64083552,138.46700379,260.04,6.028,-4.167,337.054,HR_20210209__F01_C01_0003.seq,HR_20210209__F01_C01_0003_0039.tif
1,1612840401392,1630552392171,-34.64067954,138.4669099,260.548,4.48,-4.511,337.408,HR_20210209__F01_C01_0003.seq,HR_20210209__F01_C01_0003_0040.tif
1,1612840401763,1630552392671,-34.640526,138.4668176,261.004,4.042,-3.595,337.227,HR_20210209__F01_C01_0003.seq,HR_20210209__F01_C01_0003_0041.tif
1,1612840402263,1630552393171,-34.64037039,138.46672289,261.474,6.561,-3.782,336.748,HR_20210209__F01_C01_0003.seq,HR_20210209__F01_C01_0003_0042.tif
1,1612840402763,1630552393671,-34.6402169,138.46663088,261.934,9.399,-4.082,336.024,HR_20210209__F01_C01_0003.seq,HR_20210209__F01_C01_0003_0043.tif
1,1612840403263,1630552394171,-34.64006156,138.46653972,262.453,7.953,-5.266,335.366,HR_20210209__F01_C01_0003.seq,HR_20210209__F01_C01_0003_0044.tif
1,1612840403763,1630552394671,-34.63990566,138.46644972,262.994,7.686,-5.916,335.284,HR_20210209__F01_C01_0003.seq,HR_20210209__F01_C01_0003_0045.tif
1,1612840404263,1630552395171,-34.63974797,138.46635897,263.206,8.982,-5.254,336.062,HR_20210209__F01_C01_0003.seq,HR_20210209__F01_C01_0003_0046.tif
1,1612840404763,1630552395671,-34.63959041,138.46627032,263.045,7.945,-4.995,336.432,HR_20210209__F01_C01_0003.seq,HR_20210209__F01_C01_0003_0047.tif
1,1612840405263,1630552396171,-34.63943153,138.46618187,262.516,7.505,-4.802,336.162,HR_20210209__F01_C01_0003.seq,HR_20210209__F01_C01_0003_0048.tif
1,1612840405763,1630552396671,-34.6392733,138.46609475,261.788,5.917,-5.102,336.014,HR_20210209__F01_C01_0003.seq,HR_20210209__F01_C01_0003_0049.tif
1,1612840406263,1630552397171,-34.63911495,138.4660074,260.923,4.832,-5.079,335.832,HR_20210209__F01_C01_0003.seq,HR_20210209__F01_C01_0003_0050.tif
1,1612840406764,1630552397671,-34.63895621,138.46591852,260.079,3.619,-5.05,335.932,HR_20210209__F01_C01_0003.seq,HR_20210209__F01_C01_0003_0051.tif
1,1612840407264,1630552398171,-34.63879748,138.46582726,259.604,5.257,-4.778,336.016,HR_20210209__F01_C01_0003.seq,HR_20210209__F01_C01_0003_0052.tif
1,1612840407763,1630552398671,-34.63863878,138.46573473,259.334,6.353,-4.789,335.928,HR_20210209__F01_C01_0003.seq,HR_20210209__F01_C01_0003_0053.tif
1,1612840408264,1630552399171,-34.63848221,138.465643,258.931,5.666,-4.608,335.908,HR_20210209__F01_C01_0003.seq,HR_20210209__F01_C01_0003_0054.tif
1,1612840408763,1630552399671,-34.6383249,138.46555009,258.405,5.77,-3.919,335.649,HR_20210209__F01_C01_0003.seq,HR_20210209__F01_C01_0003_0055.tif
1,1612840409264,1630552400171,-34.63817349,138.46546218,258.089,7.295,-4.184,335.092,HR_20210209__F01_C01_0003.seq,HR_20210209__F01_C01_0003_0056.tif
1,1612840409763,1630552400671,-34.63801607,138.46536915,257.671,7.321,-4.122,334.728,HR_20210209__F01_C01_0003.seq,HR_20210209__F01_C01_0003_0057.tif
1,1612840410264,1630552401171,-34.63786142,138.46527856,257.096,8.32,-3.38,334.981,HR_20210209__F01_C01_0003.seq,HR_20210209__F01_C01_0003_0058.tif
1,1612840410764,1630552401671,-34.63770335,138.46518475,256.535,8.493,-3.041,335.815,HR_20210209__F01_C01_0003.seq,HR_20210209__F01_C01_0003_0059.tif
1,1612840411264,1630552402171,-34.63754685,138.46509288,256.141,7.366,-3.712,337.05,HR_20210209__F01_C01_0003.seq,HR_20210209__F01_C01_0003_0060.tif
1,1612840411763,1630552402671,-34.63738875,138.46499981,256.043,8.11,-3.321,338.048,HR_20210209__F01_C01_0003.seq,HR_20210209__F01_C01_0003_0061.tif
1,1612840412264,1630552403171,-34.63723331,138.46490959,255.854,5.366,-3.154,338.03,HR_20210209__F01_C01_0003.seq,HR_20210209__F01_C01_0003_0062.tif
1,1612840412763,1630552403671,-34.63707673,138.46481766,255.768,4.423,-2.994,337.651,HR_20210209__F01_C01_0003.seq,HR_20210209__F01_C01_0003_0063.tif
1,1612840413263,1630552404171,-34.63692246,138.46472606,255.733,5.507,-2.758,337.036,HR_20210209__F01_C01_0003.seq,HR_20210209__F01_C01_0003_0064.tif
1,1612840413763,1630552404671,-34.63676736,138.46463238,255.77,7.203,-2.83,337.137,HR_20210209__F01_C01_0003.seq,HR_20210209__F01_C01_0003_0065.tif
1,1612840414263,1630552405171,-34.63661362,138.4645396,255.937,7.709,-2.776,337.895,HR_20210209__F01_C01_0003.seq,HR_20210209__F01_C01_0003_0066.tif
1,1612840414763,1630552405671,-34.63645933,138.46444682,256.019,7.47,-2.32,338.183,HR_20210209__F01_C01_0003.seq,HR_20210209__F01_C01_0003_0067.tif
1,1612840415264,1630552406171,-34.63630717,138.46435628,256.223,8.385,-2.468,338.052,HR_20210209__F01_C01_0003.seq,HR_20210209__F01_C01_0003_0068.tif
1,1612840415763,1630552406671,-34.63615342,138.46426512,256.586,9.043,-2.741,338.143,HR_20210209__F01_C01_0003.seq,HR_20210209__F01_C01_0003_0069.tif
1,1612840416264,1630552407171,-34.63600081,138.46417633,256.882,8.139,-3.274,338.269,HR_20210209__F01_C01_0003.seq,HR_20210209__F01_C01_0003_0070.tif
1,1612840416763,1630552407671,-34.6358472,138.46408736,256.93,7.638,-3.509,338.232,HR_20210209__F01_C01_0003.seq,HR_20210209__F01_C01_0003_0071.tif
1,1612840417264,1630552408171,-34.63569457,138.46399993,256.59,7.314,-3.245,338.384,HR_20210209__F01_C01_0003.seq,HR_20210209__F01_C01_0003_0072.tif
1,1612840417763,1630552408671,-34.63554145,138.46391185,256.192,6.116,-3.034,338.277,HR_20210209__F01_C01_0003.seq,HR_20210209__F01_C01_0003_0073.tif
1,1612840418264,1630552409171,-34.63538979,138.46382469,256.21,5.976,-2.774,337.803,HR_20210209__F01_C01_0003.seq,HR_20210209__F01_C01_0003_0074.tif
1,1612840418763,1630552409671,-34.63523738,138.46373581,256.428,6.234,-3.252,336.974,HR_20210209__F01_C01_0003.seq,HR_20210209__F01_C01_0003_0075.tif
1,1612840419264,1630552410171,-34.63508615,138.46364758,256.533,6.718,-3.433,336.261,HR_20210209__F01_C01_0003.seq,HR_20210209__F01_C01_0003_0076.tif
1,1612840419764,1630552410671,-34.63493385,138.46355772,256.496,7.608,-3.204,336.455,HR_20210209__F01_C01_0003.seq,HR_20210209__F01_C01_0003_0077.tif
1,1612840420264,1630552411171,-34.63478241,138.46346886,256.408,9.251,-2.794,336.843,HR_20210209__F01_C01_0003.seq,HR_20210209__F01_C01_0003_0078.tif
1,1612840420763,1630552411671,-34.63462989,138.46338015,256.265,9.531,-2.582,337.325,HR_20210209__F01_C01_0003.seq,HR_20210209__F01_C01_0003_0079.tif
1,1612840421264,1630552412171,-34.63447846,138.46329427,256.224,10.461,-2.457,337.64,HR_20210209__F01_C01_0003.seq,HR_20210209__F01_C01_0003_0080.tif
1,1612840421763,1630552412671,-34.63432565,138.46320913,256.108,11.057,-2.507,337.705,HR_20210209__F01_C01_0003.seq,HR_20210209__F01_C01_0003_0081.tif
1,1612840422264,1630552413171,-34.63417343,138.46312705,255.735,9.661,-3.078,337.382,HR_20210209__F01_C01_0003.seq,HR_20210209__F01_C01_0003_0082.tif
1,1612840422763,1630552413671,-34.6340197,138.46304472,255.127,8.187,-3.254,337.889,HR_20210209__F01_C01_0003.seq,HR_20210209__F01_C01_0003_0083.tif
1,1612840423264,1630552414171,-34.63386621,138.46296314,254.576,8.216,-3.107,338.925,HR_20210209__F01_C01_0003.seq,HR_20210209__F01_C01_0003_0084.tif
1,1612840423763,1630552414671,-34.63371183,138.46288131,254.114,6.839,-3.452,339.603,HR_20210209__F01_C01_0003.seq,HR_20210209__F01_C01_0003_0085.tif
1,1612840424264,1630552415171,-34.6335583,138.46280076,253.982,6.607,-3.958,339.828,HR_20210209__F01_C01_0003.seq,HR_20210209__F01_C01_0003_0086.tif
1,1612840424763,1630552415671,-34.6334035,138.4627189,254.112,8.256,-4.183,339.452,HR_20210209__F01_C01_0003.seq,HR_20210209__F01_C01_0003_0087.tif
1,1612840425264,1630552416171,-34.63324891,138.46263837,254.239,8.778,-4.063,338.915,HR_20210209__F01_C01_0003.seq,HR_20210209__F01_C01_0003_0088.tif
1,1612840425763,1630552416671,-34.6330929,138.46255762,254.304,7.785,-4.051,338.712,HR_20210209__F01_C01_0003.seq,HR_20210209__F01_C01_0003_0089.tif
1,1612840426264,1630552417171,-34.63293734,138.46247804,254.159,6.281,-3.658,338.523,HR_20210209__F01_C01_0003.seq,HR_20210209__F01_C01_0003_0090.tif
1,1612840426763,1630552417671,-34.63278097,138.46239688,253.961,5.176,-3.585,338.643,HR_20210209__F01_C01_0003.seq,HR_20210209__F01_C01_0003_0091.tif
1,1612840427264,1630552418171,-34.6326254,138.46231549,253.942,6.447,-3.662,339.367,HR_20210209__F01_C01_0003.seq,HR_20210209__F01_C01_0003_0092.tif
1,1612840427763,1630552418671,-34.63246894,138.46223249,253.882,8.103,-3.355,339.773,HR_20210209__F01_C01_0003.seq,HR_20210209__F01_C01_0003_0093.tif
1,1612840428264,1630552419171,-34.63231303,138.4621509,253.716,8.271,-3.477,340.093,HR_20210209__F01_C01_0003.seq,HR_20210209__F01_C01_0003_0094.tif
1,1612840428763,1630552419671,-34.63215631,138.46206897,253.497,7.841,-3.784,339.967,HR_20210209__F01_C01_0003.seq,HR_20210209__F01_C01_0003_0095.tif
1,1612840429264,1630552420171,-34.63200011,138.46198829,253.335,6.955,-4.211,339.368,HR_20210209__F01_C01_0003.seq,HR_20210209__F01_C01_0003_0096.tif
1,1612840429769,1630552420671,-34.63184263,138.46190605,253.206,6.078,-4.496,339.137,HR_20210209__F01_C01_0003.seq,HR_20210209__F01_C01_0003_0097.tif
1,1612840430264,1630552421171,-34.63168576,138.46182412,253.276,6.737,-4.933,339.004,HR_20210209__F01_C01_0003.seq,HR_20210209__F01_C01_0003_0098.tif
1,1612840430781,1630552421671,-34.63152719,138.46174083,253.76,7.567,-5.073,337.933,HR_20210209__F01_C01_0003.seq,HR_20210209__F01_C01_0003_0099.tif
1,1612840431264,1630552422171,-34.63136876,138.46165852,254.313,8.166,-4.72,336.924,HR_20210209__F01_C01_0003.seq,HR_20210209__F01_C01_0003_0100.tif
1,1612840431797,1630552422671,-34.63120874,138.46157528,255.131,9.381,-4.211,335.95,HR_20210209__F01_C01_0003.seq,HR_20210209__F01_C01_0003_0101.tif
1,1612840432264,1630552423171,-34.63104884,138.46149382,256.078,9.223,-4.019,335.219,HR_20210209__F01_C01_0003.seq,HR_20210209__F01_C01_0003_0102.tif
1,1612840432812,1630552423671,-34.63088762,138.46141135,256.929,8.195,-3.791,335.282,HR_20210209__F01_C01_0003.seq,HR_20210209__F01_C01_0003_0103.tif
1,1612840433264,1630552424171,-34.63072768,138.46133028,257.487,5.423,-3.919,335.749,HR_20210209__F01_C01_0003.seq,HR_20210209__F01_C01_0003_0104.tif
1,1612840433792,1630552424671,-34.63056687,138.4612469,257.985,3.543,-4.843,336.625,HR_20210209__F01_C01_0003.seq,HR_20210209__F01_C01_0003_0105.tif
1,1612840487199,1630552478106,-34.63195908,138.46304111,246.372,7.976,-2.923,148.802,HR_20210209__F01_C01_0004.seq,HR_20210209__F01_C01_0004_0001.tif
1,1612840487699,1630552478606,-34.63210022,138.46311127,247.148,7.865,-2.644,147.518,HR_20210209__F01_C01_0004.seq,HR_20210209__F01_C01_0004_0002.tif
1,1612840488199,1630552479106,-34.63224126,138.46318102,247.81,6.97,-2.86,146.661,HR_20210209__F01_C01_0004.seq,HR_20210209__F01_C01_0004_0003.tif
1,1612840488699,1630552479606,-34.63238201,138.46325106,248.521,4.996,-3.508,146.347,HR_20210209__F01_C01_0004.seq,HR_20210209__F01_C01_0004_0004.tif
1,1612840489199,1630552480106,-34.63252234,138.46332184,249.249,3.571,-4.01,146.056,HR_20210209__F01_C01_0004.seq,HR_20210209__F01_C01_0004_0005.tif
1,1612840489699,1630552480606,-34.63266147,138.4633944,250.185,5.444,-3.72,145.475,HR_20210209__F01_C01_0004.seq,HR_20210209__F01_C01_0004_0006.tif
1,1612840490199,1630552481106,-34.63280008,138.46346759,251.313,6.553,-3.273,144.295,HR_20210209__F01_C01_0004.seq,HR_20210209__F01_C01_0004_0007.tif
1,1612840490699,1630552481606,-34.63293853,138.46354226,252.54,5.673,-4.119,144.307,HR_20210209__F01_C01_0004.seq,HR_20210209__F01_C01_0004_0008.tif
1,1612840491199,1630552482106,-34.63307679,138.46361813,253.893,6.004,-4.378,144.9,HR_20210209__F01_C01_0004.seq,HR_20210209__F01_C01_0004_0009.tif
1,1612840491701,1630552482606,-34.63321438,138.46369372,255.104,5.513,-4.555,144.203,HR_20210209__F01_C01_0004.seq,HR_20210209__F01_C01_0004_0010.tif
1,1612840492199,1630552483106,-34.63335185,138.46377075,256.217,6.014,-4.229,144.514,HR_20210209__F01_C01_0004.seq,HR_20210209__F01_C01_0004_0011.tif
1,1612840492703,1630552483606,-34.63348905,138.4638488,257.155,6.198,-3.97,145.51,HR_20210209__F01_C01_0004.seq,HR_20210209__F01_C01_0004_0012.tif
1,1612840493199,1630552484106,-34.63362616,138.46392745,257.857,7.889,-2.787,147.273,HR_20210209__F01_C01_0004.seq,HR_20210209__F01_C01_0004_0013.tif
1,1612840493719,1630552484606,-34.63376268,138.46400498,258.543,8.746,-2.626,148.271,HR_20210209__F01_C01_0004.seq,HR_20210209__F01_C01_0004_0014.tif
1,1612840494199,1630552485106,-34.63389891,138.4640809,259.164,8.227,-2.527,148.642,HR_20210209__F01_C01_0004.seq,HR_20210209__F01_C01_0004_0015.tif
1,1612840494736,1630552485606,-34.63403514,138.46415623,259.755,8.883,-2.958,149.619,HR_20210209__F01_C01_0004.seq,HR_20210209__F01_C01_0004_0016.tif
1,1612840495199,1630552486106,-34.63417117,138.46423015,260.037,7.747,-2.736,150.084,HR_20210209__F01_C01_0004.seq,HR_20210209__F01_C01_0004_0017.tif
1,1612840495744,1630552486606,-34.63430686,138.46430292,260.221,7.464,-2.578,149.836,HR_20210209__F01_C01_0004.seq,HR_20210209__F01_C01_0004_0018.tif
1,1612840496199,1630552487106,-34.63444236,138.46437497,260.362,6.579,-3.132,149.354,HR_20210209__F01_C01_0004.seq,HR_20210209__F01_C01_0004_0019.tif
1,1612840496712,1630552487606,-34.63457775,138.4644471,260.476,8.881,-3.011,149.089,HR_20210209__F01_C01_0004.seq,HR_20210209__F01_C01_0004_0020.tif
1,1612840497199,1630552488106,-34.63471324,138.4645181,260.445,8.379,-3.22,148.601,HR_20210209__F01_C01_0004.seq,HR_20210209__F01_C01_0004_0021.tif
1,1612840497766,1630552488606,-34.63484905,138.46458822,260.361,6.899,-3.364,147.979,HR_20210209__F01_C01_0004.seq,HR_20210209__F01_C01_0004_0022.tif
1,1612840498199,1630552489106,-34.63498505,138.4646587,260.281,5.204,-3.747,147.853,HR_20210209__F01_C01_0004.seq,HR_20210209__F01_C01_0004_0023.tif
1,1612840498798,1630552489606,-34.63512065,138.46472963,260.047,4.241,-3.595,147.291,HR_20210209__F01_C01_0004.seq,HR_20210209__F01_C01_0004_0024.tif
1,1612840499199,1630552490106,-34.63525566,138.46480141,259.952,3.524,-3.965,145.969,HR_20210209__F01_C01_0004.seq,HR_20210209__F01_C01_0004_0025.tif
1,1612840499813,1630552490606,-34.63539017,138.46487464,259.901,3.844,-3.998,144.173,HR_20210209__F01_C01_0004.seq,HR_20210209__F01_C01_0004_0026.tif
1,1612840500199,1630552491106,-34.63552473,138.46494982,260.093,8.481,-3.641,143.301,HR_20210209__F01_C01_0004.seq,HR_20210209__F01_C01_0004_0027.tif
1,1612840500827,1630552491607,-34.6356595,138.46502431,260.072,8.068,-3.974,142.146,HR_20210209__F01_C01_0004.seq,HR_20210209__F01_C01_0004_0028.tif
1,1612840501200,1630552492107,-34.63579507,138.46509891,260.104,8.249,-3.937,141.599,HR_20210209__F01_C01_0004.seq,HR_20210209__F01_C01_0004_0029.tif
1,1612840501828,1630552492607,-34.63593135,138.4651742,260.254,8.206,-4.539,142.062,HR_20210209__F01_C01_0004.seq,HR_20210209__F01_C01_0004_0030.tif
1,1612840502199,1630552493107,-34.63606838,138.46525017,260.424,6.97,-4.428,143.309,HR_20210209__F01_C01_0004.seq,HR_20210209__F01_C01_0004_0031.tif
1,1612840502699,1630552493607,-34.6362057,138.46532649,260.886,6.82,-4.732,144.328,HR_20210209__F01_C01_0004.seq,HR_20210209__F01_C01_0004_0032.tif
1,1612840503199,1630552494107,-34.63634298,138.46540257,261.243,7.574,-4.539,144.349,HR_20210209__F01_C01_0004.seq,HR_20210209__F01_C01_0004_0033.tif
1,1612840503699,1630552494607,-34.6364804,138.46547869,261.275,7.92,-4.476,144.612,HR_20210209__F01_C01_0004.seq,HR_20210209__F01_C01_0004_0034.tif
1,1612840504199,1630552495107,-34.63661812,138.46555415,261.241,8.115,-4.52,144.353,HR_20210209__F01_C01_0004.seq,HR_20210209__F01_C01_0004_0035.tif
1,1612840504699,1630552495607,-34.63675627,138.46562955,261.284,6.389,-4.257,144.315,HR_20210209__F01_C01_0004.seq,HR_20210209__F01_C01_0004_0036.tif
1,1612840505199,1630552496107,-34.63689479,138.46570579,261.514,5.066,-4.432,144.625,HR_20210209__F01_C01_0004.seq,HR_20210209__F01_C01_0004_0037.tif
1,1612840505700,1630552496607,-34.63703284,138.46578252,261.672,5.747,-4.058,144.383,HR_20210209__F01_C01_0004.seq,HR_20210209__F01_C01_0004_0038.tif
1,1612840506199,1630552497107,-34.63717052,138.46585931,261.774,5.922,-4.14,143.196,HR_20210209__F01_C01_0004.seq,HR_20210209__F01_C01_0004_0039.tif
1,1612840506699,1630552497607,-34.63730814,138.46593658,261.793,6.91,-3.549,142.587,HR_20210209__F01_C01_0004.seq,HR_20210209__F01_C01_0004_0040.tif
1,1612840507199,1630552498107,-34.63744582,138.46601366,261.752,6.978,-3.567,141.959,HR_20210209__F01_C01_0004.seq,HR_20210209__F01_C01_0004_0041.tif
1,1612840507699,1630552498607,-34.63758354,138.46609086,261.617,5.401,-3.592,141.755,HR_20210209__F01_C01_0004.seq,HR_20210209__F01_C01_0004_0042.tif
1,1612840508199,1630552499107,-34.63772098,138.46616875,261.206,5.077,-3.215,142.062,HR_20210209__F01_C01_0004.seq,HR_20210209__F01_C01_0004_0043.tif
1,1612840508699,1630552499607,-34.63785783,138.46624725,260.66,5.056,-3.089,142.659,HR_20210209__F01_C01_0004.seq,HR_20210209__F01_C01_0004_0044.tif
1,1612840509199,1630552500107,-34.63799441,138.46632639,260.28,4.526,-2.865,143.119,HR_20210209__F01_C01_0004.seq,HR_20210209__F01_C01_0004_0045.tif
1,1612840509699,1630552500607,-34.63813066,138.46640656,260.174,5.359,-3.713,143.958,HR_20210209__F01_C01_0004.seq,HR_20210209__F01_C01_0004_0046.tif
1,1612840510199,1630552501107,-34.63826651,138.46648707,260.049,5.666,-2.988,144.452,HR_20210209__F01_C01_0004.seq,HR_20210209__F01_C01_0004_0047.tif
1,1612840510700,1630552501607,-34.63840198,138.46656773,260.077,6.885,-2.196,144.885,HR_20210209__F01_C01_0004.seq,HR_20210209__F01_C01_0004_0048.tif
1,1612840511199,1630552502107,-34.6385371,138.46664811,260.184,6.281,-1.817,145.508,HR_20210209__F01_C01_0004.seq,HR_20210209__F01_C01_0004_0049.tif
1,1612840511699,1630552502607,-34.63867187,138.4667286,260.474,7.15,-1.743,146.813,HR_20210209__F01_C01_0004.seq,HR_20210209__F01_C01_0004_0050.tif
1,1612840512199,1630552503107,-34.63880651,138.46680814,260.701,8.578,-1.506,148.262,HR_20210209__F01_C01_0004.seq,HR_20210209__F01_C01_0004_0051.tif
1,1612840512699,1630552503607,-34.63894089,138.4668851,260.863,8.379,-2.117,148.219,HR_20210209__F01_C01_0004.seq,HR_20210209__F01_C01_0004_0052.tif
1,1612840513199,1630552504107,-34.63907536,138.46696001,260.961,8.181,-2.55,147.302,HR_20210209__F01_C01_0004.seq,HR_20210209__F01_C01_0004_0053.tif
1,1612840513699,1630552504607,-34.63921019,138.46703365,260.899,7.008,-2.808,146.39,HR_20210209__F01_C01_0004.seq,HR_20210209__F01_C01_0004_0054.tif
1,1612840514199,1630552505107,-34.63934535,138.46710689,260.861,7.336,-3.049,145.711,HR_20210209__F01_C01_0004.seq,HR_20210209__F01_C01_0004_0055.tif
1,1612840514699,1630552505607,-34.63948083,138.46718017,260.799,6.502,-3.768,145.448,HR_20210209__F01_C01_0004.seq,HR_20210209__F01_C01_0004_0056.tif
1,1612840515199,1630552506107,-34.63961649,138.46725373,260.657,6.778,-3.647,145.318,HR_20210209__F01_C01_0004.seq,HR_20210209__F01_C01_0004_0057.tif
1,1612840515699,1630552506607,-34.63975233,138.46732762,260.415,6.535,-3.808,145.581,HR_20210209__F01_C01_0004.seq,HR_20210209__F01_C01_0004_0058.tif
1,1612840516199,1630552507107,-34.63988838,138.46740178,260.003,5.572,-4.117,145.971,HR_20210209__F01_C01_0004.seq,HR_20210209__F01_C01_0004_0059.tif
1,1612840516699,1630552507607,-34.6400244,138.46747644,259.552,6.104,-3.95,146.167,HR_20210209__F01_C01_0004.seq,HR_20210209__F01_C01_0004_0060.tif
1,1612840517199,1630552508107,-34.64016055,138.46755147,259.09,6.536,-3.97,146.077,HR_20210209__F01_C01_0004.seq,HR_20210209__F01_C01_0004_0061.tif
1,1612840517699,1630552508607,-34.6402969,138.46762666,258.553,6.7,-4.039,145.713,HR_20210209__F01_C01_0004.seq,HR_20210209__F01_C01_0004_0062.tif
1,1612840518199,1630552509107,-34.64043374,138.46770222,258,6.88,-4.197,145.447,HR_20210209__F01_C01_0004.seq,HR_20210209__F01_C01_0004_0063.tif
1,1612840518699,1630552509607,-34.64057104,138.46777797,257.522,6.727,-4.496,145.021,HR_20210209__F01_C01_0004.seq,HR_20210209__F01_C01_0004_0064.tif
1,1612840519199,1630552510107,-34.64070867,138.4678538,256.933,6.019,-4.226,144.403,HR_20210209__F01_C01_0004.seq,HR_20210209__F01_C01_0004_0065.tif
1,1612840519699,1630552510607,-34.64084638,138.4679305,256.322,5.686,-4.171,143.991,HR_20210209__F01_C01_0004.seq,HR_20210209__F01_C01_0004_0066.tif
1,1612840520199,1630552511107,-34.64098425,138.46800836,255.736,6.145,-4.241,144.158,HR_20210209__F01_C01_0004.seq,HR_20210209__F01_C01_0004_0067.tif
1,1612840520699,1630552511607,-34.64112207,138.46808684,254.992,6.589,-3.954,144.427,HR_20210209__F01_C01_0004.seq,HR_20210209__F01_C01_0004_0068.tif
1,1612840521199,1630552512107,-34.64125992,138.46816569,254.175,7.334,-3.471,144.8,HR_20210209__F01_C01_0004.seq,HR_20210209__F01_C01_0004_0069.tif
1,1612840521699,1630552512607,-34.64139785,138.46824427,253.402,8.56,-3.186,145.162,HR_20210209__F01_C01_0004.seq,HR_20210209__F01_C01_0004_0070.tif
1,1612840522199,1630552513107,-34.64153602,138.46832187,252.634,9.131,-2.38,145.35,HR_20210209__F01_C01_0004.seq,HR_20210209__F01_C01_0004_0071.tif
1,1612840522699,1630552513607,-34.64167503,138.4683985,252.605,11.169,-2.837,145.636,HR_20210209__F01_C01_0004.seq,HR_20210209__F01_C01_0004_0072.tif
1,1612840523199,1630552514107,-34.64181508,138.46847315,253.03,6.818,-4.302,145.317,HR_20210209__F01_C01_0004.seq,HR_20210209__F01_C01_0004_0073.tif
1,1612840523699,1630552514607,-34.6419555,138.4685479,253.796,4.873,-4.4,144.787,HR_20210209__F01_C01_0004.seq,HR_20210209__F01_C01_0004_0074.tif
1,1612840524199,1630552515107,-34.64209581,138.46862427,254.788,4.798,-5.069,144.546,HR_20210209__F01_C01_0004.seq,HR_20210209__F01_C01_0004_0075.tif
1,1612840524699,1630552515607,-34.6422361,138.4687024,255.714,4.769,-4.954,144.667,HR_20210209__F01_C01_0004.seq,HR_20210209__F01_C01_0004_0076.tif
1,1612840525199,1630552516107,-34.64237655,138.46878223,256.616,6.494,-4.72,145.179,HR_20210209__F01_C01_0004.seq,HR_20210209__F01_C01_0004_0077.tif
1,1612840525700,1630552516607,-34.64251717,138.46886241,257.418,7.302,-4.997,145.174,HR_20210209__F01_C01_0004.seq,HR_20210209__F01_C01_0004_0078.tif
